City_ID,City,Lat,Lng,Max Temp,Humidity,Cloudiness,Wind Speed,Country,Date
0,tura,25.5198,90.2201,22.72,44,57,1.0,IN,1682460809
1,port lincoln,-34.7333,135.8667,20.72,54,100,6.45,AU,1682460809
2,waitangi,-43.9535,-176.5597,11.57,91,100,1.79,NZ,1682460655
3,cape canaveral,28.4058,-80.6048,24.49,80,29,4.14,US,1682460810
4,lautoka,-17.6167,177.4667,28.92,61,20,1.54,FJ,1682460810
5,margaret river,-33.95,115.0667,15.87,74,100,8.46,AU,1682460810
6,blackmans bay,-43.0167,147.3167,11.96,83,0,2.18,AU,1682460810
7,wailua homesteads,22.0669,-159.378,27.24,69,100,7.72,US,1682460810
8,carbonear,47.7332,-53.2148,2.35,90,100,6.84,CA,1682460810
9,anadyr,64.75,177.4833,-7.72,61,0,2.68,RU,1682460810
10,adamstown,-25.066,-130.1015,25.2,78,5,4.61,PN,1682460657
11,albany,42.6001,-73.9662,11.76,49,99,1.87,US,1682460538
12,new norfolk,-42.7826,147.0587,12.62,72,0,1.36,AU,1682460811
13,grytviken,-54.2811,-36.5092,4.93,92,82,5.51,GS,1682460811
14,thompson,55.7435,-97.8558,2.37,97,99,2.22,CA,1682460656
15,georgetown,5.4112,100.3354,26.96,94,20,0.0,MY,1682460811
16,punta arenas,-53.15,-70.9167,7.84,70,40,6.69,CL,1682460294
17,college,64.8569,-147.8028,2.27,45,20,3.6,US,1682460638
18,minas de marcona,-15.2119,-75.1103,18.94,71,24,5.94,PE,1682460811
19,talnakh,69.4865,88.3972,-0.44,86,97,2.29,RU,1682460811
20,port-aux-francais,-49.35,70.2167,4.69,82,10,12.86,TF,1682460811
21,san pedro pochutla,15.7333,-96.4667,30.95,49,85,4.59,MX,1682460684
22,whitehorse,60.7161,-135.0538,5.61,38,10,4.92,CA,1682460812
23,ushuaia,-54.8,-68.3,4.81,81,75,8.75,AR,1682460812
24,naze,28.3667,129.4833,17.28,86,100,6.28,JP,1682460637
25,agua dulce,18.1333,-94.1333,26.88,59,54,6.37,MX,1682460812
26,kavaratti,10.5669,72.642,27.45,69,46,2.45,IN,1682460812
27,iqaluit,63.7506,-68.5145,0.29,93,40,2.4,CA,1682460812
28,jamestown,42.097,-79.2353,8.07,68,75,4.63,US,1682460812
29,impfondo,1.6381,18.0667,22.14,97,91,0.13,CG,1682460812
30,tiksi,71.6872,128.8694,-14.29,100,100,1.13,RU,1682460812
31,nuku'alofa,-21.1333,-175.2,26.19,73,40,6.17,TO,1682460812
32,bredasdorp,-34.5322,20.0403,14.45,85,20,1.2,ZA,1682460813
33,ribeira grande,38.5167,-28.7,17.65,94,20,4.92,PT,1682460813
34,jumla,29.2747,82.1838,5.76,79,79,2.05,NP,1682460809
35,mizdah,31.4451,12.9801,21.9,27,30,3.28,LY,1682460813
36,port elizabeth,-33.918,25.5701,19.06,96,100,2.06,ZA,1682460813
37,bethel,41.3712,-73.414,13.89,46,100,2.06,US,1682460813
38,kodiak,57.79,-152.4072,4.73,81,75,6.69,US,1682460814
39,codrington,-38.2667,141.9667,15.16,70,50,3.67,AU,1682460814
40,edinburgh of the seven seas,-37.0676,-12.3116,14.95,65,85,12.16,SH,1682460814
41,puerto natales,-51.7236,-72.4875,7.25,57,20,5.66,CL,1682460814
42,enewetak,11.3474,162.3373,26.75,82,99,7.89,MH,1682460814
43,coos bay,43.3665,-124.2179,22.95,63,0,10.8,US,1682460814
44,trujillo,-8.116,-79.03,23.98,78,75,5.14,PE,1682460815
45,jinka,5.65,36.65,16.19,96,100,1.09,ET,1682460815
46,cannonvale,-20.2833,148.7,20.66,78,63,7.28,AU,1682460815
47,chernyshevsk,52.5243,117.0174,-2.67,49,58,2.62,RU,1682460815
48,hamilton,39.1834,-84.5333,16.66,38,100,1.79,US,1682460043
49,crane,31.3974,-102.3501,29.09,15,0,3.82,US,1682460797
50,udachny,66.4167,112.4,-8.23,95,100,3.07,RU,1682460815
51,puerto ayora,-0.7393,-90.3518,28.98,88,31,2.68,EC,1682460815
52,fallon,39.4735,-118.7774,17.93,20,75,6.17,US,1682460816
53,invercargill,-46.4,168.35,11.68,82,100,0.89,NZ,1682460816
54,itajuba,-22.4256,-45.4528,16.51,87,4,1.17,BR,1682460780
55,ust-nera,64.5667,143.2,-7.0,92,81,2.09,RU,1682460816
56,aden,12.7794,45.0367,28.0,81,7,5.54,YE,1682460816
57,nar'yan-mar,67.6713,53.087,-7.31,88,7,5.85,RU,1682460816
58,obo,5.3998,26.4869,20.62,95,100,2.43,CF,1682460816
59,timaru,-44.4,171.25,9.57,74,95,1.51,NZ,1682460816
60,turpan,42.9333,89.1667,19.04,24,95,1.97,CN,1682460816
61,paramonga,-10.6667,-77.8333,25.36,74,92,4.67,PE,1682460817
62,zakynthos,37.7914,20.8953,13.68,85,87,3.52,GR,1682460817
63,olonkinbyen,70.9221,-8.7187,-3.69,69,99,4.98,SJ,1682460657
64,tazacorte,28.629,-17.9293,20.54,91,20,4.12,ES,1682460817
65,geraldton,-28.7667,114.6,17.23,72,75,5.14,AU,1682460817
66,zaranj,30.9667,61.8833,26.42,20,92,3.96,AF,1682460817
67,tralee,52.2704,-9.7026,7.12,94,100,4.67,IE,1682460548
68,hawaiian paradise park,19.5933,-154.9731,27.8,62,0,4.12,US,1682460818
69,palmer,42.1584,-72.3287,14.26,47,75,3.6,US,1682460818
70,kristiansund,63.1115,7.732,1.36,93,75,1.54,NO,1682460818
71,touros,-5.1989,-35.4608,25.47,87,98,4.33,BR,1682460819
72,brisas de zicatela,15.8369,-97.0419,30.29,62,40,5.14,MX,1682460819
73,midvagur,62.0511,-7.1939,0.46,80,75,1.54,FO,1682460819
74,inari,68.906,27.0288,-1.89,88,100,1.6,FI,1682460819
75,lebu,-37.6167,-73.65,14.04,80,100,2.46,CL,1682460819
76,broome,42.2506,-75.833,12.48,39,75,4.63,US,1682460808
77,iskateley,67.6803,53.1512,-7.33,88,7,5.88,RU,1682460819
78,gizo,-8.103,156.8419,28.07,76,97,2.7,SB,1682460820
79,sioux falls,43.55,-96.7003,13.94,30,40,7.72,US,1682460614
80,yellowknife,62.456,-114.3525,5.87,52,100,4.92,CA,1682460820
81,lihue,21.9789,-159.3672,27.58,69,100,7.72,US,1682460652
82,wyndham,37.6985,-77.6125,17.25,42,0,0.0,US,1682460820
83,lubz,53.4626,12.0292,3.99,77,17,5.65,DE,1682460820
84,eyl,7.9803,49.8164,27.73,80,36,4.25,SO,1682460820
85,maragogi,-9.0122,-35.2225,25.34,86,89,2.59,BR,1682460528
86,uliastay,47.7417,96.8444,-1.32,64,53,2.54,MN,1682460820
87,papatowai,-46.5619,169.4708,10.35,72,89,7.37,NZ,1682460821
88,sinabang,2.4803,96.3801,27.44,79,100,1.77,ID,1682460821
89,swakopmund,-22.6833,14.5333,16.66,85,3,0.45,NA,1682460821
90,la passe,45.5549,-0.8967,12.13,95,100,4.7,FR,1682460821
91,nuuk,64.1835,-51.7216,0.49,100,75,9.39,GL,1682460821
92,kalulushi,-12.8378,28.0919,13.87,87,5,1.43,ZM,1682460821
93,ilebo,-4.3167,20.5833,22.99,86,2,0.65,CD,1682460821
94,spanish wells,26.323,-81.7957,29.46,68,0,6.69,US,1682460821
95,dauphin,51.1494,-100.0502,10.25,38,98,3.38,CA,1682460822
96,waliso,8.5333,37.9833,14.97,89,86,0.89,ET,1682460822
97,mount isa,-20.7333,139.5,18.87,68,40,2.57,AU,1682460822
98,whakatane,-37.9585,176.9854,20.49,61,78,2.63,NZ,1682460822
99,santa cruz,-17.8,-63.1667,24.7,78,75,1.54,BO,1682460600
100,el golaa,33.4849,9.0068,27.73,20,47,4.9,TN,1682460822
101,kenora,49.8167,-94.4337,5.99,35,99,1.79,CA,1682460822
102,mananjary,-21.2167,48.3333,23.12,84,86,1.71,MG,1682460822
103,mount pearl,47.5166,-52.7813,1.64,96,100,6.69,CA,1682460822
104,juan l. lacaze,-34.4333,-57.4167,18.99,91,82,2.5,UY,1682460823
105,keflavik,64.0049,-22.5624,2.24,93,75,3.09,IS,1682460823
106,bridgewater,44.3835,-64.5155,8.15,66,53,1.79,CA,1682460823
107,nishinoomote,30.7333,131.0,17.73,79,100,13.52,JP,1682460823
108,greymouth,-42.4667,171.2,12.36,73,80,5.01,NZ,1682460823
109,saint-paul,-21.0096,55.2707,24.44,93,0,0.89,RE,1682460823
110,port mathurin,-19.6833,63.4167,25.98,81,12,7.22,MU,1682460823
111,richards bay,-28.783,32.0377,20.45,95,11,1.92,ZA,1682460823
112,west island,-12.1568,96.8225,25.99,83,75,7.2,CC,1682460823
113,badger,64.8,-147.5333,2.22,46,40,3.6,US,1682460824
114,menongue,-14.6585,17.691,19.16,59,65,2.16,AO,1682460824
115,fort st. john,56.2499,-120.8529,8.15,34,47,7.48,CA,1682460671
116,bac lieu,9.285,105.7244,28.01,78,100,5.48,VN,1682460824
117,sandakan,5.8402,118.1179,24.32,92,99,1.45,MY,1682460824
118,vila franca do campo,37.7167,-25.4333,17.23,95,71,2.51,PT,1682460824
119,vilyuchinsk,52.9306,158.4028,5.15,80,50,3.56,RU,1682460824
120,zahedan,29.4963,60.8629,17.68,47,42,2.65,IR,1682460605
121,sao joao da barra,-21.6403,-41.0511,24.05,86,4,3.43,BR,1682460803
122,mejit,10.2753,170.8646,27.17,79,99,8.6,MH,1682460824
123,petatlan,17.5167,-101.2667,31.89,51,22,4.21,MX,1682460824
124,bontang,0.1333,117.5,24.86,86,91,1.49,ID,1682460825
125,yuxia,34.0615,108.6291,12.19,74,30,2.42,CN,1682460825
126,taroa,8.7058,171.2275,27.58,79,100,8.54,MH,1682460798
127,thief river falls,48.1191,-96.1812,8.96,37,75,0.0,US,1682460825
128,yaren,-0.5472,166.916,28.27,75,49,6.51,NR,1682460825
129,avarua,-21.2078,-159.775,28.03,69,90,3.09,CK,1682460825
130,hasaki,35.7333,140.8333,15.22,85,100,10.29,JP,1682460825
131,paranhos,-23.8928,-55.4311,19.63,97,90,1.83,BR,1682460826
132,shiyan,32.6475,110.7781,11.07,68,35,1.21,CN,1682460826
133,qaqortoq,60.7167,-46.0333,1.63,89,98,1.2,GL,1682460826
134,el nido,11.1858,119.3956,27.31,79,69,2.45,PH,1682460826
135,rio gallegos,-51.6226,-69.2181,6.03,61,0,2.57,AR,1682460748
136,nema,57.5067,50.5011,12.01,89,100,1.72,RU,1682460826
137,atafu village,-8.5421,-172.5159,29.09,75,62,6.75,TK,1682460826
138,machico,32.7,-16.7667,20.4,73,20,1.54,PT,1682460826
139,yakeshi,49.2833,120.7333,1.3,24,100,2.37,CN,1682460826
140,vorgashor,67.5833,63.95,-12.93,99,64,3.67,RU,1682460827
141,leo,11.1,-2.1,32.13,32,83,2.59,BF,1682460827
142,sattahip,12.6664,100.9007,29.99,89,20,1.54,TH,1682460827
143,kiunga,-6.1219,141.2906,24.37,98,97,0.33,PG,1682460827
144,saipan,15.1355,145.701,28.39,100,40,9.26,MP,1682460785
145,andergrove,-21.0833,149.1833,20.91,80,72,8.45,AU,1682460827
146,akrehamn,59.2667,5.1833,5.23,65,20,11.32,NO,1682460827
147,carrefour,18.5411,-72.3992,30.1,54,40,4.63,HT,1682460827
148,camabatela,-8.1881,15.375,17.21,94,31,0.75,AO,1682460827
149,hakui,36.8833,136.7833,15.7,97,100,4.85,JP,1682460828
150,sitka,57.0531,-135.33,5.94,70,100,5.14,US,1682460828
151,segou,13.4317,-6.2157,33.79,12,3,3.88,ML,1682460828
152,arno,60.1167,18.6333,4.05,97,89,2.0,SE,1682460828
153,lompoc,34.6391,-120.4579,24.27,75,100,3.6,US,1682460662
154,ukhta,63.5671,53.6835,-1.77,98,84,1.54,RU,1682460828
155,cabedelo,-6.9811,-34.8339,27.37,87,100,4.5,BR,1682460753
156,fort bragg,35.139,-79.006,19.39,49,98,2.27,US,1682460828
157,as sulayyil,20.4607,45.5779,26.52,44,78,6.3,SA,1682460828
158,ketchikan,55.3422,-131.6461,9.26,53,75,8.23,US,1682460829
159,adi keyh,14.8444,39.3772,17.53,61,71,1.34,ER,1682460829
160,tsiombe,-25.3,45.4833,17.7,77,6,1.44,MG,1682460829
161,yahyali,38.1023,35.357,8.99,82,89,2.51,TR,1682460829
162,pechora,65.1472,57.2244,-8.34,98,38,1.22,RU,1682460829
163,figuig (centre),32.1089,-1.2286,25.43,19,0,2.35,MA,1682460829
164,papao,-17.75,-149.55,28.7,84,100,6.35,PF,1682460829
165,newman,37.3138,-121.0208,27.38,27,15,4.47,US,1682460829
166,sile,41.1754,29.6133,15.87,56,93,0.45,TR,1682460829
167,galveston,29.3669,-94.9669,26.14,79,100,5.14,US,1682460589
168,uribia,11.7139,-72.266,29.95,54,15,6.34,CO,1682460830
169,dudinka,69.4058,86.1778,-0.21,98,100,3.43,RU,1682460830
170,khandyga,62.6667,135.6,-1.43,91,94,0.97,RU,1682460830
171,burang,30.25,81.1667,-6.59,84,72,0.29,CN,1682460830
172,sinjai,-5.1241,120.253,23.78,90,100,1.7,ID,1682460830
173,biloela,-24.4167,150.5,19.65,62,0,7.63,AU,1682460830
174,la'ie,21.6477,-157.9253,28.98,82,100,2.68,US,1682460830
175,ihtiman,42.4333,23.8167,10.65,73,100,1.34,BG,1682460830
176,tofol,5.3248,163.0078,29.88,79,75,4.63,FM,1682460831
177,stanley,54.868,-1.6985,3.77,86,0,1.03,GB,1682460814
178,viedma,-40.8135,-62.9967,20.68,48,100,0.97,AR,1682460576
179,san blas,21.5167,-105.2667,36.94,44,54,3.43,MX,1682460831
180,manokwari,-0.8667,134.0833,25.99,81,92,0.8,ID,1682460831
181,salaqi,40.5414,110.5108,6.71,26,33,3.73,CN,1682460831
182,dogondoutchi,13.6393,4.0287,32.24,11,39,2.5,NE,1682460831
183,kayangel,8.0823,134.7173,28.43,73,27,3.16,PW,1682460831
184,bilibino,68.0546,166.4372,-5.82,60,37,0.12,RU,1682460831
185,al hazm,16.1641,44.7769,27.54,32,90,2.0,YE,1682460831
186,port moresby,-9.4431,147.1797,26.01,85,97,1.92,PG,1682460726
187,tazovsky,67.4667,78.7,-11.15,98,100,3.4,RU,1682460832
188,vadso,70.0744,29.7487,-1.51,80,0,3.6,NO,1682460789
189,ancud,-41.8697,-73.8203,11.71,97,100,2.78,CL,1682460832
190,lehigh acres,26.6254,-81.6248,29.45,62,0,6.17,US,1682460832
191,chibougamau,49.9168,-74.3659,5.79,81,75,2.06,CA,1682460832
192,nueva concepcion,14.2,-91.3,32.95,48,74,6.61,GT,1682460832
193,maceio,-9.6658,-35.7353,25.69,94,75,1.54,BR,1682460821
194,villa yapacani,-17.4,-63.8333,23.12,89,28,0.34,BO,1682460832
195,bastrop,32.7562,-91.8724,22.82,35,40,3.09,US,1682460765
196,trincomalee,8.5711,81.2335,27.9,79,100,1.14,LK,1682460832
197,susuman,62.7833,148.1667,-7.3,92,97,1.09,RU,1682460833
198,san clemente del tuyu,-36.3569,-56.7235,18.21,88,67,2.49,AR,1682460599
199,santo antonio,-6.3106,-35.4789,23.7,92,100,2.77,BR,1682460833
200,choibalsan,48.0667,114.5,5.18,23,29,7.76,MN,1682460833
201,santa maria,-29.6842,-53.8069,18.66,95,100,2.45,BR,1682460598
202,grand-bassam,5.2118,-3.7388,27.98,84,81,4.51,CI,1682460833
203,estrela,-28.0611,-50.9383,15.14,94,87,2.13,BR,1682460833
204,ramapuram,13.1167,79.2,25.75,87,93,2.32,IN,1682460710
205,luwuk,-0.9516,122.7875,25.62,88,86,0.65,ID,1682460237
206,celestun,20.8667,-90.4,28.75,69,60,4.52,MX,1682460833
207,kuching,1.55,110.3333,26.74,89,20,0.0,MY,1682460833
208,kingston,17.997,-76.7936,27.36,77,66,0.45,JM,1682460590
209,petropavlovsk-kamchatsky,53.0452,158.6483,4.33,52,75,2.0,RU,1682460656
210,soio,-6.1349,12.3689,26.34,89,97,2.87,AO,1682460834
211,kutum,14.2,24.6667,27.96,19,56,2.68,SD,1682460834
212,kouango,4.9934,19.9619,23.51,89,100,1.02,CF,1682460834
213,petushki,55.9264,39.461,10.35,94,100,3.34,RU,1682460834
214,paveh,35.0434,46.3565,8.17,66,0,0.37,IR,1682460834
215,north bend,43.4065,-124.2243,22.91,64,0,10.8,US,1682460834
216,kalispell,48.1958,-114.3129,14.6,46,40,5.66,US,1682460834
217,alghero,40.5589,8.3181,16.05,94,40,2.06,IT,1682460834
218,roosendaal,51.5308,4.4653,6.64,87,10,1.82,NL,1682460835
219,yima,34.7381,111.8839,10.09,66,0,1.54,CN,1682460835
220,utrik,11.2278,169.8474,27.03,79,85,8.46,MH,1682460835
221,hithadhoo,-0.6,73.0833,28.76,75,100,5.94,MV,1682460835
222,fort mcmurray,56.7268,-111.381,6.73,75,100,2.06,CA,1682460835
223,uturoa,-16.7333,-151.4333,28.0,76,18,4.9,PF,1682460835
224,al fuwayliq,26.4432,43.2534,20.58,66,43,5.25,SA,1682460835
225,labrador city,52.9463,-66.9114,7.76,74,71,2.15,CA,1682460835
226,nogliki,51.8333,143.1667,1.1,86,100,3.88,RU,1682460835
227,la ronge,55.1001,-105.2842,6.12,75,100,6.17,CA,1682460835
228,hadibu,12.65,54.0333,27.57,73,27,2.73,YE,1682460835
229,ad douiem,14.0012,32.3116,33.57,13,45,4.32,SD,1682460836
230,longyearbyen,78.2186,15.6401,-8.09,79,0,1.03,SJ,1682460836
231,ribeira brava,32.65,-17.0667,20.4,62,57,2.37,PT,1682460836
232,akureyri,65.6835,-18.0878,-0.04,64,100,3.6,IS,1682460370
233,bandar,2.05,99.75,22.93,97,100,0.99,ID,1682460836
234,harar,9.3094,42.1258,16.54,84,94,1.58,ET,1682460836
235,mucumpiz,8.4167,-71.1333,15.62,91,99,0.94,VE,1682460836
236,namibe,-15.1961,12.1522,23.5,81,56,3.22,AO,1682460836
237,kindu,-2.95,25.95,21.25,97,96,2.45,CD,1682460837
238,puro,12.4841,123.3827,26.37,80,14,3.91,PH,1682460837
239,malangali,-8.5667,34.85,17.65,91,39,5.15,TZ,1682460837
240,ishigaki,24.3448,124.1572,22.41,85,98,10.59,JP,1682460837
241,barah,13.7,30.3667,31.65,21,72,1.9,SD,1682460837
242,xichang,27.8964,102.2634,13.45,84,98,1.63,CN,1682460656
243,colonia,50.9333,6.95,6.36,76,0,1.54,DE,1682460837
244,eforie sud,44.0229,28.6494,11.56,95,100,2.94,RO,1682460837
245,st. john's,47.5649,-52.7093,2.1,96,100,8.49,CA,1682460699
246,happy valley-goose bay,53.3168,-60.3315,9.24,61,94,1.34,CA,1682460754
247,guerrero negro,27.9769,-114.0611,19.74,55,0,7.28,MX,1682460838
248,haiku-pauwela,20.9219,-156.3051,27.01,57,75,5.66,US,1682460838
249,naracoorte,-36.9579,140.7383,16.66,61,97,5.48,AU,1682460838
250,abalak,58.1286,68.5944,8.81,75,18,1.76,RU,1682460838
251,angul,20.85,85.1,23.9,78,93,0.46,IN,1682460838
252,lorengau,-2.0226,147.2712,29.04,74,54,3.49,PG,1682460838
253,pokaran,26.9167,71.9167,29.37,18,100,3.14,IN,1682460838
254,mahina,-17.5065,-149.489,28.75,78,75,3.6,PF,1682460839
255,koundara,12.4833,-13.3,32.92,20,2,1.2,GN,1682460839
256,aasiaat,68.7098,-52.8699,0.19,99,100,2.45,GL,1682460839
257,hobyo,5.3505,48.5268,28.52,75,96,5.86,SO,1682460839
258,paoua,7.2427,16.4406,28.01,48,89,2.77,CF,1682460839
259,beloyarskiy,63.7119,66.6722,-10.1,99,30,1.0,RU,1682460839
260,urengoy,65.9667,78.3667,-10.56,96,100,2.06,RU,1682460836
261,hammerfest,70.6634,23.6821,0.25,74,75,0.0,NO,1682460839
262,alofi,-19.0595,-169.9187,25.86,75,68,5.97,NU,1682460840
263,nyurba,63.2842,118.3319,-5.01,96,100,0.12,RU,1682460840
264,kwale,5.7063,6.4374,25.14,93,98,1.79,NG,1682460840
265,iranshahr,27.2025,60.6848,21.92,41,83,2.79,IR,1682460840
266,mareeba,-17.0,145.4333,23.58,81,93,1.97,AU,1682460840
267,mukalla,14.5425,49.1242,27.55,74,12,2.21,YE,1682460840
268,kingscliff,-28.2667,153.5667,18.74,94,75,3.6,AU,1682460840
269,balkashino,52.5167,68.7667,10.13,57,3,2.92,KZ,1682460840
270,coruripe,-10.1256,-36.1756,24.66,87,95,2.77,BR,1682460841
271,nova soure,-11.2333,-38.4833,25.12,73,87,4.65,BR,1682460841
272,leava,-14.3,-178.1667,28.44,77,32,6.64,WF,1682460841
273,juneau,58.3019,-134.4197,6.9,90,100,9.26,US,1682460765
274,ambodifotatra,-16.9833,49.85,26.4,82,39,6.43,MG,1682460841
275,taoudenni,22.6783,-3.9836,31.08,12,3,4.92,ML,1682460841
276,minzhu,43.7286,127.3447,4.35,66,94,2.76,CN,1682460841
277,los frentones,-26.4077,-61.4137,19.92,65,0,1.01,AR,1682460841
278,vernon,50.2581,-119.2691,18.2,35,100,0.45,CA,1682460621
279,tolanaro,-25.0319,46.9987,19.31,78,50,2.96,MG,1682460642
280,bocas del toro,9.3333,-82.25,27.22,74,38,2.35,PA,1682460842
281,nabire,-3.3667,135.4833,24.85,91,75,1.41,ID,1682460842
282,kiama,-34.6833,150.8667,19.44,90,66,0.64,AU,1682460817
283,santa terezinha,-29.9002,-50.0904,21.45,89,65,6.7,BR,1682460842
284,groningen,53.25,6.75,4.46,81,20,3.09,NL,1682460613
285,la grande,45.3246,-118.0877,17.23,38,21,1.0,US,1682460842
286,koulamoutou,-1.1303,12.4736,22.38,99,67,1.01,GA,1682460842
287,east london,-33.0153,27.9116,20.63,92,99,4.3,ZA,1682460630
288,mar del plata,-38.0023,-57.5575,18.38,95,100,1.54,AR,1682460784
289,fortuna,40.5982,-124.1573,18.29,68,8,1.34,US,1682460532
290,kudahuvadhoo,2.6708,72.8944,28.11,77,100,3.62,MV,1682460843
291,kizner,56.2749,51.508,13.44,70,100,2.95,RU,1682460843
292,metlili chaamba,32.2667,3.6333,26.2,21,95,2.24,DZ,1682460843
293,helena,46.5927,-112.0361,13.55,45,0,6.17,US,1682460741
294,pangody,65.85,74.4859,-6.32,98,98,2.01,RU,1682460844
295,vilhena,-12.7406,-60.1458,21.99,91,95,0.28,BR,1682460844
296,ulysses,37.5814,-101.3552,9.16,93,100,6.69,US,1682460844
297,hermanus,-34.4187,19.2345,15.33,80,31,2.77,ZA,1682460844
298,carnarvon,-24.8667,113.6333,16.66,66,0,6.85,AU,1682460817
299,isafjordur,66.0755,-23.124,-1.41,61,6,2.63,IS,1682460844
300,niquelandia,-14.4739,-48.4597,24.19,65,22,1.2,BR,1682460844
301,samut sakhon,13.5833,100.3,28.9,78,77,3.02,TH,1682460844
302,howard springs,-12.497,131.047,24.95,89,90,3.43,AU,1682460844
303,champerico,14.3,-91.9167,34.3,59,51,6.16,GT,1682460845
304,benjamin constant,-4.3831,-70.0311,29.07,69,40,3.09,BR,1682460845
305,zalesovo,53.9939,84.7431,0.61,100,100,1.74,RU,1682460845
306,flying fish cove,-10.4217,105.6791,27.09,76,100,3.15,CX,1682460845
307,kumylzhenskaya,49.8809,42.5898,12.21,92,79,5.83,RU,1682460845
308,manicore,-5.8092,-61.3003,24.45,95,40,0.95,BR,1682460846
309,laguna,38.421,-121.4238,29.99,19,0,5.66,US,1682460846
310,charlottetown,46.2352,-63.1267,5.43,65,47,4.92,CA,1682460846
311,miranda,3.2499,-76.2281,25.87,68,38,1.18,CO,1682460846
312,san luis de la loma,17.2706,-100.8939,29.59,57,28,5.2,MX,1682460846
313,cabo san lucas,22.8909,-109.9124,30.9,36,0,6.17,MX,1682460846
314,tual,-5.6667,132.75,28.1,74,56,1.29,ID,1682460846
315,northam,51.0333,-4.2167,7.01,73,100,4.68,GB,1682460779
316,el calafate,-50.3408,-72.2768,6.94,68,6,2.94,AR,1682460805
317,inhambane,-23.865,35.3833,21.91,83,0,3.31,MZ,1682460847
318,kani keli,-12.9536,45.1033,27.59,66,35,5.37,YT,1682460847
319,jiangyou,31.7667,104.7167,13.68,82,98,0.97,CN,1682460847
320,lamar,33.6668,-95.5836,14.94,73,100,6.69,US,1682460847
321,seosan,36.7817,126.4522,7.92,84,60,5.64,KR,1682460847
322,hola,51.5377,23.1902,7.1,93,100,7.34,PL,1682460848
323,sao jose da coroa grande,-8.8978,-35.1478,25.5,85,80,2.79,BR,1682460573
324,ambon,-3.6954,128.1814,28.31,88,20,3.6,ID,1682460744
325,zabaykal'sk,49.6333,117.3167,2.32,29,85,2.28,RU,1682460848
326,muisne,0.6,-80.0333,27.92,73,32,2.66,EC,1682460848
327,katsuura,35.1333,140.3,17.78,86,100,8.38,JP,1682460575
328,berwick-upon-tweed,55.7833,-2.0,3.13,70,55,2.11,GB,1682460848
329,starotitarovskaya,45.2136,37.1439,8.26,89,1,4.18,RU,1682460848
330,srikakulam,18.3,83.9,27.05,82,97,1.06,IN,1682460848
331,gadzhiyevo,69.2551,33.3362,-9.39,94,53,2.1,RU,1682460849
332,hargeysa,9.56,44.065,22.05,72,18,6.87,SO,1682460849
333,oodweyne,9.4092,45.064,22.72,71,12,3.22,SO,1682460849
334,fale old settlement,-9.3852,-171.2468,29.1,73,74,5.95,TK,1682460849
335,general toshevo,43.7,28.0333,11.26,94,100,1.79,BG,1682460849
336,katsuren-haebaru,26.3369,127.8719,21.01,90,100,6.69,JP,1682460849
337,childress,34.4264,-100.204,23.14,43,75,4.63,US,1682460850
338,victorica,-36.2151,-65.4359,20.9,42,90,4.3,AR,1682460850
339,n'zeto,-7.2312,12.8666,25.88,92,74,2.67,AO,1682460850
340,ilhabela,-23.7781,-45.3581,21.33,83,71,1.29,BR,1682460850
341,rio grande,-32.035,-52.0986,23.06,89,100,3.41,BR,1682460850
342,sovetskaya gavan',48.9723,140.2878,4.46,65,100,7.58,RU,1682460745
343,port alfred,-33.5906,26.891,20.1,97,99,3.89,ZA,1682460851
344,namdrik,5.5994,168.1028,28.13,77,88,8.54,MH,1682460851
345,gaspe,48.8334,-64.4819,6.19,73,69,1.95,CA,1682460851
346,torghay,49.6339,63.4981,13.3,44,93,3.68,KZ,1682460851
347,taesal-li,36.9714,126.4542,7.99,81,54,9.01,KR,1682460851
348,tobelo,1.7284,128.0095,26.45,83,17,0.05,ID,1682460851
349,sinan,34.8262,126.1086,10.72,84,12,5.75,KR,1682460852
350,ain taya,36.7933,3.2869,16.91,67,0,0.51,DZ,1682460852
351,chicoana,-25.1009,-65.5331,18.36,67,0,1.41,AR,1682460852
352,chokwe,-24.5333,32.9833,20.76,91,8,2.4,MZ,1682460852
353,sisimiut,66.9395,-53.6735,1.05,98,100,1.03,GL,1682460852
354,remire-montjoly,4.9167,-52.2667,25.02,94,75,0.0,GF,1682460852
355,pasni,25.2631,63.471,25.53,65,92,1.72,PK,1682460853
356,lago da pedra,-4.3333,-45.1667,24.31,91,79,0.66,BR,1682460853
357,firuzabad,28.8438,52.5707,16.89,52,21,1.55,IR,1682460853
358,porto novo,6.4965,2.6036,27.65,84,86,3.07,BJ,1682460853
359,kingsbridge,50.2845,-3.7764,8.64,65,100,6.69,GB,1682460853
360,shingu,33.7333,135.9833,18.02,98,100,6.7,JP,1682460853
361,tabou,4.423,-7.3528,26.99,86,100,3.38,CI,1682460854
362,jalapa,19.5333,-96.9167,24.55,60,100,2.69,MX,1682460338
363,manakara,-22.1333,48.0167,21.82,87,100,1.91,MG,1682460854
364,lata,40.1629,-8.3327,16.56,91,11,0.91,PT,1682460854
365,ilulissat,69.2167,-51.1,1.01,93,100,2.57,GL,1682460854
366,spanish springs,39.6491,-119.7074,19.58,20,0,4.12,US,1682460854
367,oriximina,-1.7656,-55.8661,26.38,80,23,0.31,BR,1682460822
368,buritizeiro,-17.3511,-44.9622,25.42,52,91,1.81,BR,1682460854
369,salinas,36.6777,-121.6555,28.88,58,0,5.66,US,1682460854
370,berdigestyakh,62.0989,126.6992,-3.39,95,100,2.1,RU,1682460855
371,nadym,65.5333,72.5167,-5.71,98,98,0.67,RU,1682460855
372,san luis,-33.295,-66.3356,17.99,52,80,1.56,AR,1682460855
373,phek,25.6667,94.5,9.88,96,2,0.64,IN,1682460855
374,mount gambier,-37.8333,140.7667,15.23,68,57,3.75,AU,1682460791
375,smithers,54.7804,-127.1743,8.18,39,75,2.06,CA,1682460396
376,luanco,43.6152,-5.7934,17.71,94,100,0.73,ES,1682460855
377,marsabit,2.3284,37.9899,17.53,90,100,0.84,KE,1682460856
378,island harbour,50.724,-1.2758,8.85,76,99,2.68,GB,1682460856
379,okhotsk,59.3833,143.3,-0.68,96,100,2.88,RU,1682460856
380,la sarre,48.8002,-79.1996,1.85,95,100,1.03,CA,1682460856
381,merizo village,13.2658,144.6691,28.32,95,27,8.2,GU,1682460856
382,dubbo,-32.25,148.6167,12.07,87,8,3.6,AU,1682460856
383,chiredzi,-21.05,31.6667,19.72,77,0,2.01,ZW,1682460856
384,noosa heads,-26.3833,153.15,20.19,75,59,8.56,AU,1682460857
385,saint-philippe,-21.3585,55.7679,23.77,84,13,1.28,RE,1682460857
386,nikol'sk,53.7189,46.0712,10.67,93,100,6.96,RU,1682460857
387,bamboo flat,11.7,92.7167,27.3,76,96,1.01,IN,1682460857
388,kalmunai,7.4167,81.8167,26.91,83,100,0.65,LK,1682460577
389,ocean city,39.2776,-74.5746,15.1,33,77,0.89,US,1682460659
390,daru,-9.0763,143.2092,27.2,85,100,5.62,PG,1682460616
391,uruguaiana,-29.7547,-57.0883,19.96,77,0,1.54,BR,1682460857
392,road town,18.4167,-64.6167,28.05,65,20,2.06,VG,1682460857
393,kattivakkam,13.2167,80.3167,29.48,86,61,3.44,IN,1682460857
394,maracaibo,10.6317,-71.6406,29.75,58,20,3.92,VE,1682460800
395,es castell,39.8795,4.2854,16.38,94,20,3.09,ES,1682460858
396,mhamid,29.82,-5.72,29.04,12,18,2.63,MA,1682460858
397,urzhar,47.093,81.6294,6.94,54,0,2.75,KZ,1682460858
398,sydney,-33.8679,151.2073,16.88,88,40,2.06,AU,1682460314
399,price,39.5994,-110.8107,10.62,37,0,8.23,US,1682460858
400,alice springs,-23.7,133.8833,13.75,77,60,3.29,AU,1682460858
401,sibiu,45.8,24.15,9.18,87,40,1.54,RO,1682460851
402,sinop,41.7711,34.8709,11.18,65,99,3.74,TR,1682460799
403,jiagedaqi,50.4167,124.1167,0.16,40,93,0.35,CN,1682460859
404,puerto deseado,-47.7503,-65.8938,9.78,69,100,4.39,AR,1682460859
405,steamboat springs,40.485,-106.8317,9.97,60,100,2.24,US,1682460570
406,pandan,14.0453,124.1694,25.96,84,27,3.63,PH,1682460859
407,callao,-12.0667,-77.15,26.16,69,0,7.2,PE,1682460859
408,coquimbo,-29.9533,-71.3436,14.85,94,75,4.63,CL,1682460636
409,port shepstone,-30.7414,30.455,22.42,85,96,1.35,ZA,1682460859
410,santa helena,-2.2311,-45.3,23.93,93,87,1.3,BR,1682460860
411,ormara,25.2088,64.6357,26.09,63,96,3.76,PK,1682460860
412,isla mujeres,21.2311,-86.731,30.09,72,66,6.46,MX,1682460860
413,hoemul-li,41.4339,129.67,7.33,86,92,1.84,KP,1682460860
414,kailua-kona,19.6406,-155.9956,28.49,73,40,4.12,US,1682460860
415,nguigmi,14.2495,13.1092,31.11,15,7,3.05,NE,1682460860
416,general villegas,-35.0328,-63.0125,19.19,47,8,2.12,AR,1682460860
417,walvis bay,-22.9575,14.5053,16.72,70,0,3.6,NA,1682460557
418,mbandaka,0.0487,18.2603,22.64,91,82,1.6,CD,1682460861
419,polyarnyy,69.1989,33.4478,-7.94,91,49,1.94,RU,1682460861
420,kapshagay,43.8833,77.0833,8.83,46,0,4.07,KZ,1682460861
421,fada,9.5667,8.3,25.92,55,72,0.56,NG,1682460862
422,hopelchen,19.7667,-89.85,38.6,25,100,1.34,MX,1682460862
423,nantucket,41.2835,-70.0995,11.08,87,40,3.09,US,1682460578
424,afaahiti,-17.75,-149.2833,27.81,86,100,5.72,PF,1682460862
425,punta del este,-34.9667,-54.95,21.06,91,75,2.24,UY,1682460862
426,nova vicosa,-17.8919,-39.3719,24.67,83,6,2.59,BR,1682460844
427,rongelap,11.1635,166.8941,25.45,87,100,10.59,MH,1682460862
428,myanaung,18.2833,95.3167,28.42,51,75,0.89,MM,1682460862
429,liepaja,56.5419,21.0367,5.99,87,20,4.63,LV,1682460862
430,santyoku,37.4406,129.1708,9.76,68,3,2.84,KR,1682460859
431,trzebiatow,54.0615,15.2648,4.36,70,16,8.53,PL,1682460863
432,corner brook,48.9667,-57.9484,7.22,81,99,3.0,CA,1682460718
433,tarakan,3.3,117.6333,26.02,83,100,2.12,ID,1682460566
434,tsuyama,35.05,134.0,12.13,97,100,2.21,JP,1682460863
435,alo,7.4178,6.7371,28.46,66,93,3.07,NG,1682460863
436,puerto princesa,9.7392,118.7353,26.99,83,20,2.06,PH,1682460863
437,labytnangi,66.6572,66.4183,-12.21,92,5,2.43,RU,1682460863
438,puerto santa,-8.9906,-78.6456,25.36,76,46,5.07,PE,1682460864
439,prineville,44.2999,-120.8345,20.62,26,0,2.06,US,1682460864
440,linqiong,30.4159,103.4609,14.78,70,99,0.49,CN,1682460864
441,arraial do cabo,-22.9661,-42.0278,23.92,88,20,4.12,BR,1682460864
442,nova xavantina,-14.6667,-52.35,24.19,81,19,0.67,BR,1682460864
443,temiskaming shores,47.4938,-79.7153,3.19,80,100,2.43,CA,1682460865
444,carinhanha,-14.3047,-43.765,25.92,42,9,1.67,BR,1682460865
445,ta`u,-14.2336,-169.5144,27.79,71,48,2.49,AS,1682460865
446,diffa,13.3154,12.6113,32.38,12,95,2.69,NE,1682460865
447,dhuusamarreeb,5.535,46.3861,27.58,71,84,6.66,SO,1682460865
448,lerwick,60.1545,-1.1494,2.0,68,79,8.9,GB,1682460691
449,vieux-habitants,16.0589,-61.7659,25.76,73,29,1.11,GP,1682460865
450,cidreira,-30.1811,-50.2056,21.88,86,88,7.03,BR,1682460865
451,gamba,-2.65,10.0,23.79,93,100,2.46,GA,1682460865
452,oranjemund,-28.55,16.4333,14.28,94,4,2.92,NA,1682460608
453,kapa'a,22.0752,-159.319,27.99,69,100,7.72,US,1682460608
454,san martin,-33.081,-68.4681,22.35,32,48,4.24,AR,1682460866
455,mccook,40.2019,-100.6257,12.03,65,100,7.2,US,1682460866
456,mili,6.0815,171.735,27.84,79,91,6.69,MH,1682460866
457,queenstown,-31.8976,26.8753,14.21,88,61,1.15,ZA,1682460866
458,plettenberg bay,-34.0527,23.3716,16.32,87,58,0.92,ZA,1682460822
459,chumphon,10.3333,98.8333,22.32,90,100,0.38,TH,1682460866
460,vila velha,-20.3297,-40.2925,24.97,91,75,3.6,BR,1682460867
461,faya-largeau,17.9257,19.1043,32.13,10,0,3.91,TD,1682460867
462,cartagena,10.3997,-75.5144,28.79,74,20,8.23,CO,1682460844
463,alaghsas,17.0187,8.0168,30.05,11,0,3.6,NE,1682460867
464,adrar,20.5022,-10.0711,31.03,11,0,3.68,MR,1682460867
465,palikir - national government center,6.9248,158.1611,29.41,74,75,2.57,FM,1682460867
466,otjiwarongo,-20.4637,16.6477,23.25,43,99,2.46,NA,1682460302
467,alajarvi,63.0,23.8167,5.79,96,52,1.14,FI,1682460867
468,coahuayana de hidalgo,18.7,-103.6583,30.28,43,96,3.77,MX,1682460868
469,prado,-17.3411,-39.2208,24.16,86,7,2.11,BR,1682460811
470,noumea,-22.2763,166.4572,25.0,99,99,3.08,NC,1682460390
471,fort-shevchenko,44.5086,50.263,12.68,92,98,5.28,KZ,1682460868
472,constantia,44.1833,28.65,11.5,95,100,3.32,RO,1682460868
473,tucuma,-0.1833,-50.05,25.08,91,61,2.56,BR,1682460868
474,san patricio,28.017,-97.5169,26.97,72,86,7.1,US,1682460644
475,al ghayzah,16.2079,52.176,27.87,73,28,4.91,YE,1682460868
476,puerto la cruz,10.2167,-64.6167,25.9,80,94,2.74,VE,1682460868
477,jianshui,23.6363,102.8264,16.78,73,80,1.51,CN,1682460868
478,albu kamal,34.45,40.9186,21.83,25,0,3.6,SY,1682460869
479,cu chi,10.9667,106.4667,29.01,73,100,3.54,VN,1682460869
480,flin flon,54.7682,-101.865,7.77,51,100,5.39,CA,1682460869
481,nova sintra,14.8667,-24.7167,20.26,73,18,6.94,CV,1682460869
482,son la,21.3167,103.9,18.05,92,95,1.2,VN,1682460869
483,constitucion,-35.3333,-72.4167,14.27,72,100,4.58,CL,1682460869
484,'ain merane,36.1628,0.9704,18.56,23,10,1.17,DZ,1682460869
485,kiffa,16.6166,-11.4045,34.36,13,69,3.51,MR,1682460869
486,nouadhibou,20.931,-17.0347,18.99,88,20,6.69,MR,1682460870
487,ciudad bolivar,8.1222,-63.5497,23.54,91,100,1.28,VE,1682460870
488,tchintabaraden,15.8969,5.7985,30.19,13,17,3.08,NE,1682460870
489,nyazepetrovsk,56.0531,59.6028,9.57,69,100,1.39,RU,1682460870
490,elsa,26.2934,-97.9931,30.7,78,100,4.12,US,1682460870
491,maiyama,12.0841,4.3677,34.45,23,73,1.66,NG,1682460870
492,pisco,-13.7,-76.2167,24.03,73,0,6.69,PE,1682460870
493,san juan,-31.5375,-68.5364,23.42,28,34,1.96,AR,1682460871
494,jose bonifacio,-21.0528,-49.6883,22.74,70,31,3.18,BR,1682460871
495,egilsstadir,65.2653,-14.3948,-2.44,72,100,3.54,IS,1682460582
496,shangmei,27.7428,111.2956,10.64,91,1,0.34,CN,1682460871
497,waddan,29.1614,16.139,22.84,17,4,4.03,LY,1682460871
498,santa marta de ortigueira,43.6833,-7.85,17.36,84,100,0.45,ES,1682460871
499,al badari,26.9926,31.4155,23.79,24,0,3.52,EG,1682460871
500,olyokminsk,60.3736,120.4264,-1.94,85,100,1.23,RU,1682460594
501,moree,-29.4667,149.85,16.02,59,0,5.46,AU,1682460787
502,tocopilla,-22.092,-70.1979,20.74,73,16,2.78,CL,1682460872
503,gazojak,41.1875,61.4036,19.59,23,9,5.57,TM,1682460872
504,salalah,17.0151,54.0924,29.05,74,40,3.09,OM,1682460872
505,illizi,26.4833,8.4667,26.28,25,93,4.28,DZ,1682460872
506,makokou,0.5738,12.8642,21.39,99,95,1.13,GA,1682460872
507,amos,48.5669,-78.1162,4.14,77,87,1.99,CA,1682460872
508,preobrazheniye,42.9019,133.9064,4.48,84,100,0.46,RU,1682460872
509,valparaiso,-33.0393,-71.6273,16.11,86,0,2.57,CL,1682460636
510,sant lluis,39.8526,4.2594,16.22,94,20,3.09,ES,1682460873
511,bubaque,11.2833,-15.8333,25.77,69,2,9.06,GW,1682460873
512,ed damer,17.5928,33.9592,31.66,13,39,4.12,SD,1682460873
513,ngorongoro,-3.2397,35.4875,11.25,92,100,1.52,TZ,1682460873
514,khark,29.2614,50.3306,24.44,72,2,2.55,IR,1682460873
515,malanje,-9.5402,16.341,18.51,95,99,1.24,AO,1682460873
516,kill devil hills,36.0307,-75.676,15.01,58,0,6.17,US,1682460590
517,roquetas de mar,36.7642,-2.6148,19.78,78,7,2.61,ES,1682460874
518,mancio lima,-7.6142,-72.8958,24.72,92,82,1.37,BR,1682460874
519,dubrowna,54.5733,30.6906,8.48,83,33,1.82,BY,1682460874
520,waiuku,-37.25,174.75,19.83,73,100,5.51,NZ,1682460874
521,karratha,-20.7377,116.8463,24.53,44,100,3.02,AU,1682460803
522,nandikotkur,15.8667,78.2667,26.38,67,90,2.47,IN,1682460874
523,lazaro cardenas,17.9583,-102.2,28.7,57,4,6.07,MX,1682460875
524,jingdezhen,29.2947,117.2079,10.31,95,0,0.84,CN,1682460875
525,debre tabor,11.85,38.0167,16.35,47,94,1.97,ET,1682460875
526,thunder bay,48.4001,-89.3168,2.19,83,100,1.99,CA,1682460875
527,hojai,26.0,92.8667,21.3,69,1,1.49,IN,1682460875
528,tarawa,1.419,172.984,29.05,79,75,2.06,KI,1682460875
529,persembe,41.0656,37.7714,9.68,73,88,2.46,TR,1682460875
530,pangkalanbuun,-2.6833,111.6167,23.33,97,95,0.64,ID,1682460875
531,kishtwar,33.3167,75.7667,9.31,67,7,2.55,IN,1682460876
532,la penita de jaltomba,21.0333,-105.25,25.94,52,65,2.73,MX,1682460876
533,port blair,11.6667,92.75,27.25,77,96,1.1,IN,1682460876
534,gagliano del capo,39.8442,18.3695,15.45,83,88,5.28,IT,1682460876
535,miyako,39.6367,141.9525,11.11,94,100,9.05,JP,1682460876
536,aioun,16.6614,-9.6149,32.35,10,0,5.57,MR,1682460876
537,santa barbara,34.7333,-120.0343,20.5,56,0,4.12,US,1682460652
538,amga,60.8953,131.9608,-3.41,91,96,1.03,RU,1682460876
539,timimoun,29.2639,0.231,28.85,15,0,2.83,DZ,1682460877
540,aguada de pasajeros,22.385,-80.8508,27.45,60,64,1.51,CU,1682460877
541,toliara,-23.35,43.6667,20.19,83,3,5.34,MG,1682460877
542,manali,13.1667,80.2667,29.48,86,67,3.37,IN,1682460877
543,xai-xai,-25.0519,33.6442,21.26,92,4,3.35,MZ,1682460877
544,tondon,10.3667,-13.35,25.92,70,26,1.45,GN,1682460877
545,igarka,67.4667,86.5833,-2.76,97,100,4.21,RU,1682460877
546,jayapura,-2.5333,140.7,25.66,89,84,2.07,ID,1682460877
547,orsta,62.2029,6.1272,3.1,86,75,0.51,NO,1682460878
548,agat village,13.3886,144.6585,28.53,88,40,8.75,GU,1682460878
549,greenwood,34.1668,-82.1165,19.09,48,75,3.6,US,1682460878
550,hilo,19.7297,-155.09,30.16,64,0,4.12,US,1682460619
551,khost,33.3395,69.9204,18.75,45,90,1.54,AF,1682460878
552,satka,55.0425,59.04,11.34,66,100,1.88,RU,1682460878
553,gereida,11.2811,25.1414,32.39,24,73,2.25,SD,1682460878
554,ghadamis,30.1337,9.5007,24.05,13,0,3.78,LY,1682460878
555,kayar,14.9192,-17.1211,21.53,84,0,6.82,SN,1682460879
556,san antonio de pale,-1.4014,5.6325,28.05,75,100,4.9,GQ,1682460879
557,moyynkum,44.2914,72.9469,11.47,31,0,9.55,KZ,1682460879
558,tindouf,27.6711,-8.1474,30.2,12,96,3.54,DZ,1682460879
559,dali,25.7,100.1833,11.61,72,1,1.86,CN,1682460879
560,menaka,15.9182,2.4022,30.87,8,3,4.05,ML,1682460879
561,opuwo,-18.0607,13.84,22.81,55,58,1.75,NA,1682460879
562,semera,11.501,41.201,29.14,52,77,5.05,ET,1682460879
563,newnham,-41.3833,147.1333,8.53,100,100,2.57,AU,1682460880
564,libreville,0.3925,9.4537,24.82,89,100,3.88,GA,1682460880
565,palora,-1.7,-77.9333,24.06,95,47,0.5,EC,1682460880
566,saint-pierre,-21.3393,55.4781,24.2,83,100,2.06,RE,1682460880
567,m'sila,35.7058,4.5419,22.25,27,33,3.98,DZ,1682460880
568,makarov,48.6333,142.8,3.18,82,100,2.73,RU,1682460745
569,maintirano,-18.0667,44.0167,23.56,76,1,4.35,MG,1682460880
570,mbanza kongo,-6.267,14.2401,20.64,98,92,0.81,AO,1682460880
571,grand falls-windsor,48.9332,-55.6649,1.39,89,99,1.79,CA,1682460881
572,east stroudsburg,40.9995,-75.1813,15.46,32,86,0.89,US,1682460881
573,zheleznodorozhnyy,55.7503,38.0042,13.23,84,100,3.47,RU,1682460881
574,mati,6.9551,126.2166,25.14,89,96,1.26,PH,1682460881
575,sidareja,-7.4846,108.7923,24.08,97,100,0.67,ID,1682460881
576,yinchuan,38.4681,106.2731,12.84,21,0,3.07,CN,1682460881
577,wanning,18.8003,110.3967,22.76,94,91,3.76,CN,1682460881
578,princeville,45.7668,-61.2985,8.67,75,63,1.79,CA,1682460881
579,patacamaya,-17.2333,-67.9167,13.62,25,2,1.29,BO,1682460881
580,sarandi del yi,-33.35,-55.6333,16.19,96,76,2.84,UY,1682460881
581,balabac,7.9868,117.0645,27.48,80,100,3.8,PH,1682460882
582,weno,7.4515,151.8468,29.97,79,100,4.12,FM,1682460882
583,nadi,-17.8,177.4167,29.0,61,20,1.54,FJ,1682460805
584,cockburn town,21.4612,-71.1419,25.92,71,40,4.17,TC,1682460882
585,chonchi,-42.6128,-73.8092,12.56,99,100,0.65,CL,1682460882
